{
  "type": "FeatureCollection",
  "features": [
   
    {
      "type": "Feature",
      "geometry": { "type": "Point", "coordinates": [-6.645457, 54.648736] },
      "properties": {
        "name": "Littlebridge Farm Fresh Ltd",
        "description": "A local farm favourite known for fresh produce and a friendly atmosphere.",
        "infoUrl": "https://www.weeadventurers.com/post/little-bridge-farm-fresh",
        "category": "animals",
        "county": "tyrone"
      }
    },
    {
      "type": "Feature",
      "geometry": { "type": "Point", "coordinates": [-6.673232, 54.762537] },
      "properties": {
        "name": "Grangewater open farm",
        "description": "A great open farm experience where kids can get up close with various farm animals.",
        "infoUrl": "https://www.weeadventurers.com/post/grangewater-open-farm",
        "category": "animals",
        "county": "derry"
      }
    },
    {
      "type": "Feature",
      "geometry": { "type": "Point", "coordinates": [-6.381184, 54.464589] },
      "properties": {
        "name": "Tannaghmore Gardens & Animal Farm",
        "description": "Features rare breeds of farm animals, beautiful gardens, and a large playpark.",
        "infoUrl": "https://www.weeadventurers.com/post/tannaghmore-gardens",
        "category": "animals",
        "county": "armagh"
      }
    },
    {
      "type": "Feature",
      "geometry": { "type": "Point", "coordinates": [-7.544125, 54.320321] },
      "properties": {
        "name": "Fermanagh Fun Farm",
        "description": "A fantastic day out with animal feeding, indoor play, and tractor rides.",
        "infoUrl": "https://www.weeadventurers.com/post/fermanagh-fun-farm",
        "category": "animals",
        "county": "fermanagh"
      }
    },
    {
      "type": "Feature",
      "geometry": { "type": "Point", "coordinates": [-6.236544, 54.110126] },
      "properties": {
        "name": "Fort Evergreen Warrenpoint",
        "description": "Combines an animal farm with a brilliant fort-themed play area and petting zoo.",
        "infoUrl": "https://www.weeadventurers.com/post/fort-evergreen",
        "category": "animals",
        "county": "down"
      }
    },
    {
      "type": "Feature",
      "geometry": { "type": "Point", "coordinates": [-5.844629, 54.277665] },
      "properties": {
        "name": "Mountpanther Farm Park",
        "description": "Features exotic animals, a huge soft play area, and outdoor bouncy pillows.",
        "infoUrl": "https://www.weeadventurers.com/post/mountpanther-farm-park",
        "category": "animals",
        "county": "down"
      }
    },
    {
      "type": "Feature",
      "geometry": { "type": "Point", "coordinates": [-5.69619, 54.530286] },
      "properties": {
        "name": "WWT Castle Espie",
        "description": "Explore the wetlands, feed the ducks, and enjoy the stunning views of Strangford Lough.",
        "infoUrl": "https://www.weeadventurers.com/post/wwt-castle-espie",
        "category": "animals",
        "county": "down"
      }
    },
    {
      "type": "Feature",
      "geometry": { "type": "Point", "coordinates": [-6.462804, 55.02327] },
      "properties": {
        "name": "Rosepark Farm",
        "description": "A family-run farm with a great inland beach, petting area, and beautiful walkways.",
        "infoUrl": "https://www.weeadventurers.com/post/rosepark-farm",
        "category": "animals",
        "county": "antrim"
      }
    },
    {
      "type": "Feature",
      "geometry": { "type": "Point", "coordinates": [-5.817242, 54.580075] },
      "properties": {
        "name": "Streamvale Farm",
        "description": "A classic dairy farm experience with puppy cuddling, bottle feeding, and barrel rides.",
        "infoUrl": "https://www.weeadventurers.com/post/streamvale-farm",
        "category": "animals",
        "county": "antrim"
      }
    },
    {
      "type": "Feature",
      "geometry": { "type": "Point", "coordinates": [-7.2555822, 54.6839536] },
      "properties": {
        "name": "Glenpark Estate",
        "description": "A beautiful estate featuring rare breed animals and a lovely woodland setting.",
        "infoUrl": "https://www.weeadventurers.com/post/glenpark-estate",
        "category": "animals",
        "county": "tyrone"
      }
    },
    {
      "type": "Feature",
      "geometry": { "type": "Point", "coordinates": [-6.652671, 55.204194] },
      "properties": {
        "name": "Portrush Strand",
        "description": "The classic NI seaside destination! Famous for its two main beaches (East and West Strand) and plenty of amusements nearby.",
        "infoUrl": "https://www.weeadventurers.com/post/portrush",
        "category": "beaches",
        "county": "antrim"
      }
    },
    {
      "type": "Feature",
      "geometry": { "type": "Point", "coordinates": [-6.650562, 55.205807] },
      "properties": {
        "name": "The Arcadia Cafe",
        "description": "A landmark spot in Portrush. Perfect for a coffee with a view while the kids explore the rocky shoreline and paddling areas.",
        "infoUrl": "https://www.weeadventurers.com/post/arcadia",
        "category": "beaches",
        "county": "antrim"
      }
    },
    {
      "type": "Feature",
      "geometry": { "type": "Point", "coordinates": [-5.828179, 54.646343] },
      "properties": {
        "name": "Seapark Bay Beach",
        "description": "Located in Holywood, this sandy beach has a brilliant, large playpark and plenty of green space for a family picnic.",
        "infoUrl": "https://www.weeadventurers.com/post/seapark-bay",
        "category": "beaches",
        "county": "north down"
      }
    },
    {
      "type": "Feature",
      "geometry": { "type": "Point", "coordinates": [-5.728669, 54.666124] },
      "properties": {
        "name": "Crawfordsburn Country Park",
        "description": "Two beautiful beaches tucked away in a country park with forest walks, a waterfall, and a modern visitor centre.",
        "infoUrl": "https://www.weeadventurers.com/post/helen-s-bay",
        "category": "beaches",
        "county": "north down"
      }
    },
    {
      "type": "Feature",
      "geometry": { "type": "Point", "coordinates": [-5.885766, 54.213481] },
      "properties": {
        "name": "Newcastle Beach",
        "description": "A stunning beach where the 'Mountains of Mourne sweep down to the sea.' Steps away from the promenade and ice cream shops.",
        "infoUrl": "https://www.weeadventurers.com/post/newcastle-beach",
        "category": "beaches",
        "county": "down"
      }
    },
    {
      "type": "Feature",
      "geometry": { "type": "Point", "coordinates": [-6.8075, 55.1685] },
      "properties": {
        "name": "Downhill Strand",
        "description": "One of NI's longest beaches, famous for the Mussenden Temple perched on the cliff above. You can even drive your car onto this beach!",
        "infoUrl": "https://www.weeadventurers.com/post/downhill-strand",
        "category": "beaches",
        "county": "derry"
      }
    },
    {
      "type": "Feature",
      "geometry": { "type": "Point", "coordinates": [-6.763372, 54.62892] },
      "properties": {
        "name": "Inflatable World Cookstown",
        "description": "A massive indoor arena filled with bouncy castles, slides, and obstacles. Perfect for burning off energy on a rainy day.",
        "infoUrl": "https://www.weeadventurers.com/post/inflatable-world",
        "category": "indoors",
        "county": "tyrone"
      }
    },
    {
      "type": "Feature",
      "geometry": { "type": "Point", "coordinates": [-6.747369, 54.647092] },
      "properties": {
        "name": "Wee Adventurers Play Hub",
        "description": "A focused play centre in Cookstown designed for younger children to explore and learn through play.",
        "infoUrl": "https://www.weeadventurers.com/post/wee-adventurers-play-hub",
        "category": "indoors",
        "county": "tyrone"
      }
    },
    {
      "type": "Feature",
      "geometry": { "type": "Point", "coordinates": [-6.970044, 54.495806] },
      "properties": {
        "name": "Happy Dayz",
        "description": "A popular soft play centre with a large multi-level frame, slides, and a dedicated toddler area.",
        "infoUrl": "https://www.weeadventurers.com/post/happy-dayz",
        "category": "indoors",
        "county": "tyrone"
      }
    },
    {
      "type": "Feature",
      "geometry": { "type": "Point", "coordinates": [-7.146198, 54.553242] },
      "properties": {
        "name": "Duff Land",
        "description": "A family-run adventure farm and indoor play area featuring animals and plenty of space to run around.",
        "infoUrl": "https://www.weeadventurers.com/post/duff-land",
        "category": "indoors",
        "county": "tyrone"
      }
    },
    {
      "type": "Feature",
      "geometry": { "type": "Point", "coordinates": [-5.999107, 54.750852] },
      "properties": {
        "name": "Mini Minds Play Cafe",
        "description": "A unique role-play cafe where children can use their imaginations while parents enjoy a coffee nearby.",
        "infoUrl": "https://www.weeadventurers.com/post/mini-minds-play-cafe",
        "category": "indoors",
        "county": "antrim"
      }
    },
    {
      "type": "Feature",
      "geometry": { "type": "Point", "coordinates": [-6.040934, 54.500232] },
      "properties": {
        "name": "High Rise Lisburn",
        "description": "A high-spec adventure centre with climbing walls and a huge multi-story soft play area.",
        "infoUrl": "https://www.weeadventurers.com/post/high-rise",
        "category": "indoors",
        "county": "antrim"
      }
    },
    {
      "type": "Feature",
      "geometry": { "type": "Point", "coordinates": [-6.320339, 54.74894] },
      "properties": {
        "name": "Little Izzie's Play Cafe",
        "description": "A cozy play cafe perfect for younger children, featuring role-play areas and great snacks for the adults.",
        "infoUrl": "https://www.weeadventurers.com/post/little-izzie-s-play-cafe",
        "category": "indoors",
        "county": "antrim"
      }
    },
    {
      "type": "Feature",
      "geometry": { "type": "Point", "coordinates": [-6.04678, 54.509904] },
      "properties": {
        "name": "Nature and Nurture",
        "description": "A beautiful sensory-focused play centre designed to be a calm and engaging environment for little ones.",
        "infoUrl": "https://www.weeadventurers.com/post/nature-nurture",
        "category": "indoors",
        "county": "antrim"
      }
    },
    {
      "type": "Feature",
      "geometry": { "type": "Point", "coordinates": [-5.987327, 54.573383] },
      "properties": {
        "name": "Andersonstown Leisure Centre",
        "description": "Home to 'Surf Belfast' and a fantastic indoor water park with slides that the whole family will love.",
        "infoUrl": "https://www.weeadventurers.com/post/andersonstown-leisure-centre",
        "category": "indoors",
        "county": "antrim"
      }
    },
    {
      "type": "Feature",
      "geometry": { "type": "Point", "coordinates": [-5.949787, 54.665417] },
      "properties": {
        "name": "Little Play Studio",
        "description": "A creative and imaginative role-play studio where kids can pretend to be doctors, chefs, or shopkeepers.",
        "infoUrl": "https://www.weeadventurers.com/post/little-play-studio",
        "category": "indoors",
        "county": "antrim"
      }
    },
    {
      "type": "Feature",
      "geometry": { "type": "Point", "coordinates": [-6.020808, 54.560799] },
      "properties": {
        "name": "Roar and Explore",
        "description": "Belfast City Zoo's own indoor soft play. A fun, animal-themed adventure for kids to enjoy after seeing the zoo.",
        "infoUrl": "https://www.weeadventurers.com/post/roar-explore",
        "category": "indoors",
        "county": "antrim"
      }
    },
    {
      "type": "Feature",
      "geometry": { "type": "Point", "coordinates": [-5.91551, 54.604734] },
      "properties": {
        "name": "W5",
        "description": "Ireland's award-winning science and discovery centre. Interactive exhibits for kids of all ages.",
        "infoUrl": "https://www.weeadventurers.com/post/w5",
        "category": "indoors",
        "county": "antrim"
      }
    },
    {
      "type": "Feature",
      "geometry": { "type": "Point", "coordinates": [-6.02908, 54.503598] },
      "properties": {
        "name": "Dobbies Garden Centre Lisburn",
        "description": "Includes a great little indoor soft play area and a family-friendly restaurant perfect for a quick stop.",
        "infoUrl": "https://www.weeadventurers.com/post/dobbies-lisburn",
        "category": "indoors",
        "county": "antrim"
      }
    },
    {
      "type": "Feature",
      "geometry": { "type": "Point", "coordinates": [-6.256826, 54.850844] },
      "properties": {
        "name": "Honeybees Playtown",
        "description": "An imaginative role-play centre where children can learn and explore in a miniature version of a real town.",
        "infoUrl": "https://www.weeadventurers.com/post/honeybees-playtown",
        "category": "indoors",
        "county": "antrim"
      }
    },
    {
      "type": "Feature",
      "geometry": { "type": "Point", "coordinates": [-6.068915, 54.740662] },
      "properties": {
        "name": "The Wee Village",
        "description": "A charming role-play village located in Antrim, designed specifically for toddlers and young children.",
        "infoUrl": "https://www.weeadventurers.com/post/the-wee-village",
        "category": "indoors",
        "county": "antrim"
      }
    },
    {
      "type": "Feature",
      "geometry": { "type": "Point", "coordinates": [-5.905671, 54.409605] },
      "properties": {
        "name": "Global Adventure Play LTD",
        "description": "A massive soft play and laser tag arena with multi-story frames and exciting slides.",
        "infoUrl": "https://www.weeadventurers.com/post/global-adventure-play",
        "category": "indoors",
        "county": "down"
      }
    },
    {
      "type": "Feature",
      "geometry": { "type": "Point", "coordinates": [-6.343224, 54.178496] },
      "properties": {
        "name": "The Imaginarium",
        "description": "A sensory-rich environment for children to explore through art, light, and creative play.",
        "infoUrl": "https://www.weeadventurers.com/post/the-imaginarium",
        "category": "indoors",
        "county": "down"
      }
    },
    {
      "type": "Feature",
      "geometry": { "type": "Point", "coordinates": [-7.633002, 54.344105] },
      "properties": {
        "name": "Twig & Tumble",
        "description": "A modern and clean soft play area in Enniskillen with a lovely cafe for parents.",
        "infoUrl": "https://www.weeadventurers.com/post/twig-tumble",
        "category": "indoors",
        "county": "fermanagh"
      }
    },
    {
      "type": "Feature",
      "geometry": { "type": "Point", "coordinates": [-6.441337, 54.423008] },
      "properties": {
        "name": "Playaway",
        "description": "A well-established soft play centre in Portadown with frames for different age groups.",
        "infoUrl": "https://www.weeadventurers.com/post/playaway",
        "category": "indoors",
        "county": "armagh"
      }
    },
    {
      "type": "Feature",
      "geometry": { "type": "Point", "coordinates": [-6.337056, 54.464117] },
      "properties": {
        "name": "The Hive",
        "description": "An indoor adventure centre featuring soft play, sensory areas, and role-play zones.",
        "infoUrl": "https://www.weeadventurers.com/post/the-hive",
        "category": "indoors",
        "county": "armagh"
      }
    },
    {
      "type": "Feature",
      "geometry": { "type": "Point", "coordinates": [-6.654088, 54.344897] },
      "properties": {
        "name": "The Sensory Xperience",
        "description": "A dedicated sensory space designed for children with additional needs, offering a safe and stimulating environment.",
        "infoUrl": "https://www.weeadventurers.com/post/the-sensory-xperience",
        "category": "indoors",
        "county": "armagh"
      }
    },
    {
      "type": "Feature",
      "geometry": { "type": "Point", "coordinates": [-6.39185, 54.44587] },
      "properties": {
        "name": "Airtastic Craigavon",
        "description": "A massive entertainment hub featuring a trampoline park, ninja course, and soft play area.",
        "infoUrl": "https://www.weeadventurers.com/post/airtastic-craigavon",
        "category": "indoors",
        "county": "armagh"
      }
    },
    {
      "type": "Feature",
      "geometry": { "type": "Point", "coordinates": [-6.6777, 55.1194] },
      "properties": {
        "name": "The Jet Centre",
        "description": "The ultimate rainy day spot: bowling, cinema, mini-golf, and a huge 'Alley Cats' soft play area.",
        "infoUrl": "https://www.weeadventurers.com/post/the-jet-centre",
        "category": "indoors",
        "county": "derry"
      }
    },
    {
      "type": "Feature",
      "geometry": { "type": "Point", "coordinates": [-6.671925, 54.843889] },
      "properties": {
        "name": "R Crawford & Co",
        "description": "A family-friendly hardware and lifestyle store that surprisingly houses a lovely little soft play and cafe upstairs!",
        "infoUrl": "https://www.weeadventurers.com/post/r-crawford-co",
        "category": "indoors",
        "county": "derry"
      }
    },
    {
      "type": "Feature",
      "geometry": { "type": "Point", "coordinates": [-7.325038, 54.995173] },
      "properties": {
        "name": "The Derry Walls",
        "description": "Walk the historic 17th-century walls! A great way to see the city from above with plenty of cannons for the kids to spot.",
        "infoUrl": "https://www.weeadventurers.com/post/the-derry-walls",
        "category": "museums",
        "county": "derry"
      }
    },
    {
      "type": "Feature",
      "geometry": { "type": "Point", "coordinates": [-6.645511, 54.685658] },
      "properties": {
        "name": "National Trust - Springhill",
        "description": "A pretty 17th-century house with a famous costume collection and lovely woodland walks. Keep an eye out for the friendly ghost!",
        "infoUrl": "https://www.weeadventurers.com/post/springhill-national-trust",
        "category": "museums",
        "county": "derry"
      }
    },
    {
      "type": "Feature",
      "geometry": { "type": "Point", "coordinates": [-6.810897, 55.167781] },
      "properties": {
        "name": "Mussenden Temple",
        "description": "Perched right on the cliff edge! Explore the ruins of Downhill House and run through the wide open gardens.",
        "infoUrl": "https://www.weeadventurers.com/post/mussenden-temple-downhill-demesne",
        "category": "museums",
        "county": "derry"
      }
    },
    {
      "type": "Feature",
      "geometry": { "type": "Point", "coordinates": [-6.657701, 54.46483] },
      "properties": {
        "name": "National Trust - The Argory",
        "description": "Atmospheric wooded estate beside the River Blackwater. Features a great adventure playground and a quirky cafe.",
        "infoUrl": "https://www.weeadventurers.com/post/the-argory",
        "category": "museums",
        "county": "tyrone"
      }
    },
    {
      "type": "Feature",
      "geometry": { "type": "Point", "coordinates": [-7.599556, 54.336938] },
      "properties": {
        "name": "National Trust - Castle Coole",
        "description": "A grand mansion on the edge of Enniskillen. Perfect for a family stroll around the lake and through the wooded trails.",
        "infoUrl": "https://www.weeadventurers.com/post/castle-coole",
        "category": "museums",
        "county": "fermanagh"
      }
    },
    {
      "type": "Feature",
      "geometry": { "type": "Point", "coordinates": [-7.644708, 54.346112] },
      "properties": {
        "name": "Enniskillen Castle",
        "description": "Explore the castle towers and the Inniskillings Museum. Great interactive displays for kids interested in history.",
        "infoUrl": "https://www.weeadventurers.com/post/enniskillen-castle",
        "category": "museums",
        "county": "fermanagh"
      }
    },
    {
      "type": "Feature",
      "geometry": { "type": "Point", "coordinates": [-7.730619, 54.479435] },
      "properties": {
        "name": "Castle Archdale",
        "description": "A lakeside paradise! WWII history meets adventure with forest walks, a butterfly garden, and boat hire.",
        "infoUrl": "https://www.weeadventurers.com/post/castle-archdale",
        "category": "museums",
        "county": "fermanagh"
      }
    },
    {
      "type": "Feature",
      "geometry": { "type": "Point", "coordinates": [-7.725696, 54.260287] },
      "properties": {
        "name": "Florence Court House",
        "description": "Famous for the Florence Court Yew. There's a great walled garden, a sawmill, and miles of forest paths to explore.",
        "infoUrl": "https://www.weeadventurers.com/post/florence-court",
        "category": "museums",
        "county": "fermanagh"
      }
    },
    {
      "type": "Feature",
      "geometry": { "type": "Point", "coordinates": [-5.829533, 54.44769] },
      "properties": {
        "name": "National Trust - Rowallane Garden",
        "description": "A mix of formal and wild gardens. The 'Natural Play' area and hidden trails are brilliant for little explorers.",
        "infoUrl": "https://www.weeadventurers.com/post/rowallane-garden",
        "category": "museums",
        "county": "down"
      }
    },
    {
      "type": "Feature",
      "geometry": { "type": "Point", "coordinates": [-5.839985, 54.315604] },
      "properties": {
        "name": "Seaforde Gardens & Tropical Butterfly House",
        "description": "Walk through a jungle filled with free-flying butterflies! Also features a maze and a great garden centre cafe.",
        "infoUrl": "https://www.weeadventurers.com/post/seaforde-gardens-and-tropical-butterfly-house",
        "category": "museums",
        "county": "down"
      }
    },
    {
      "type": "Feature",
      "geometry": { "type": "Point", "coordinates": [-5.899637, 54.39284] },
      "properties": {
        "name": "Montalto Estate",
        "description": "A must-visit! Home to an incredible award-winning adventure playground, trails, and a beautiful tea room.",
        "infoUrl": "https://www.weeadventurers.com/post/montalto-estate",
        "category": "museums",
        "county": "down"
      }
    },
    {
      "type": "Feature",
      "geometry": { "type": "Point", "coordinates": [-5.956166, 54.966165] },
      "properties": {
        "name": "Glenarm Castle",
        "description": "One of NI's oldest estates. The walled garden is stunning, and the Pizza Pavilion is a great family lunch spot.",
        "infoUrl": "https://www.weeadventurers.com/post/glenarm-castle",
        "category": "museums",
        "county": "antrim"
      }
    },
    {
      "type": "Feature",
      "geometry": { "type": "Point", "coordinates": [-5.91551, 54.604734] },
      "properties": {
        "name": "W5 Interactive",
        "description": "Interactive science centre with hundreds of hands-on exhibits. A perfect rainy-day destination for all ages.",
        "infoUrl": "https://www.weeadventurers.com/post/w5",
        "category": "museums",
        "county": "antrim"
      }
    },
    {
      "type": "Feature",
      "geometry": { "type": "Point", "coordinates": [-7.03693, 54.652139] },
      "properties": {
        "name": "An Creagán History",
        "description": "A forest and river walk filled with local history. Great for a quiet family bike ride or a dander through the trees.",
        "infoUrl": "https://www.weeadventurers.com/post/an-creagan",
        "category": "museums",
        "county": "tyrone"
      }
    },
    {
      "type": "Feature",
      "geometry": { "type": "Point", "coordinates": [-7.255582, 54.682401] },
      "properties": {
        "name": "Glenpark Estate Grounds",
        "description": "Beautiful grounds featuring rare-breed animals, a farm shop, and lovely forest paths.",
        "infoUrl": "https://www.weeadventurers.com/post/glenpark-estate",
        "category": "museums",
        "county": "tyrone"
      }
    },
    {
      "type": "Feature",
      "geometry": { "type": "Point", "coordinates": [-6.904974, 54.591547] },
      "properties": {
        "name": "Pomeroy Forest",
        "description": "A magical forest park featuring the 'Renardine' fairy trail and a fantastic wooden play area for children.",
        "infoUrl": "https://www.weeadventurers.com/post/pomeroy-forest",
        "category": "playparks",
        "county": "tyrone"
      }
    },
    {
      "type": "Feature",
      "geometry": { "type": "Point", "coordinates": [-7.30117, 54.605173] },
      "properties": {
        "name": "Grange Park Omagh",
        "description": "A spacious urban park in Omagh with a modern playground and an outdoor gym for parents.",
        "infoUrl": "https://www.weeadventurers.com/post/grange-park",
        "category": "playparks",
        "county": "tyrone"
      }
    },
    {
      "type": "Feature",
      "geometry": { "type": "Point", "coordinates": [-7.246855, 54.683954] },
      "properties": {
        "name": "Gortin Glen Forest Park",
        "description": "A destination park with a massive multi-age playground, deer enclosures, and family mountain bike trails.",
        "infoUrl": "https://www.weeadventurers.com/post/gortin-glen",
        "category": "playparks",
        "county": "tyrone"
      }
    },
    {
      "type": "Feature",
      "geometry": { "type": "Point", "coordinates": [-7.03693, 54.652139] },
      "properties": {
        "name": "An Creagán Trails",
        "description": "Explore the wild bogland with forest trails and a river walk. Great for bikes and buggies.",
        "infoUrl": "https://www.weeadventurers.com/post/an-creag%C3%A0n",
        "category": "playparks",
        "county": "tyrone"
      }
    },
    {
      "type": "Feature",
      "geometry": { "type": "Point", "coordinates": [-7.316009, 54.383629] },
      "properties": {
        "name": "Round Lake",
        "description": "A peaceful lakeside spot in Fivemiletown. Perfect for a walk around the water followed by a play in the park.",
        "infoUrl": "https://www.weeadventurers.com/post/round-lake",
        "category": "playparks",
        "county": "tyrone"
      }
    },
    {
      "type": "Feature",
      "geometry": { "type": "Point", "coordinates": [-7.0508458, 54.7357233] },
      "properties": {
        "name": "Davagh Forest",
        "description": "Home to the Dark Sky Observatory. Features wooded walks and world-class mountain biking trails.",
        "infoUrl": "https://www.weeadventurers.com/post/davagh-forest",
        "category": "playparks",
        "county": "tyrone"
      }
    },
    {
      "type": "Feature",
      "geometry": { "type": "Point", "coordinates": [-6.758135, 54.49031] },
      "properties": {
        "name": "Dungannon Park",
        "description": "A 70-acre park with a massive lake. It offers a great playground, tennis courts, and plenty of space for family picnics.",
        "infoUrl": "https://www.weeadventurers.com/post/dungannon-park",
        "category": "playparks",
        "county": "tyrone"
      }
    },
    {
      "type": "Feature",
      "geometry": { "type": "Point", "coordinates": [-6.818086, 54.64292] },
      "properties": {
        "name": "Drum Manor Forest Park",
        "description": "Famous for its vibrant gardens and manor ruins. The large playground is a hit with kids of all ages.",
        "infoUrl": "https://www.weeadventurers.com/post/drum-manor-forest-park",
        "category": "playparks",
        "county": "tyrone"
      }
    },
    {
      "type": "Feature",
      "geometry": { "type": "Point", "coordinates": [-5.956166, 54.966165] },
      "properties": {
        "name": "Glenarm Castle Gardens Park",
        "description": "Beautiful walled gardens with plenty of hidden corners for kids to discover. Check out the Pizza Pavilion!",
        "infoUrl": "https://www.weeadventurers.com/post/glenarm-castle",
        "category": "playparks",
        "county": "antrim"
      }
    },
    {
      "type": "Feature",
      "geometry": { "type": "Point", "coordinates": [-6.659722, 55.208333] },
      "properties": {
        "name": "Ramore Head",
        "description": "Dramatic coastal walks in Portrush. Great for exploring rock pools and watching the waves crash against the cliffs.",
        "infoUrl": "https://www.weeadventurers.com/post/ramore-head",
        "category": "playparks",
        "county": "antrim"
      }
    },
    {
      "type": "Feature",
      "geometry": { "type": "Point", "coordinates": [-5.914849, 54.584965] },
      "properties": {
        "name": "Ormeau Park",
        "description": "Belfast's oldest municipal park. Large playgrounds, eco-trails, and wide paths perfect for learning to cycle.",
        "infoUrl": "https://www.weeadventurers.com/services-9-1",
        "category": "playparks",
        "county": "antrim"
      }
    },
    {
      "type": "Feature",
      "geometry": { "type": "Point", "coordinates": [-5.931886, 54.660637] },
      "properties": {
        "name": "V36 Adventure Play Area",
        "description": "A massive, modern adventure park in Newtownabbey with climbing frames, zip wires, and a skate park.",
        "infoUrl": "https://www.weeadventurers.com/post/__v36",
        "category": "playparks",
        "county": "antrim"
      }
    },
    {
      "type": "Feature",
      "geometry": { "type": "Point", "coordinates": [-6.040872, 54.51574] },
      "properties": {
        "name": "Wallace Park",
        "description": "The 'Jewel of Lisburn'. Features a fantastic playground, a duck pond, and safe, flat walking paths.",
        "infoUrl": "https://www.weeadventurers.com/post/wallace-park",
        "category": "playparks",
        "county": "antrim"
      }
    },
    {
      "type": "Feature",
      "geometry": { "type": "Point", "coordinates": [-5.950204, 54.649745] },
      "properties": {
        "name": "Cave Hill Country Park",
        "description": "Home to Belfast Castle. The playground here is excellent, and the hike to McArt's Fort offers the best view in the city.",
        "infoUrl": "https://www.weeadventurers.com/post/cave-hill",
        "category": "playparks",
        "county": "antrim"
      }
    },
    {
      "type": "Feature",
      "geometry": { "type": "Point", "coordinates": [-6.281792, 54.872793] },
      "properties": {
        "name": "People's Park Ballymena",
        "description": "A lovely park in the heart of Ballymena with a lake, large playground, and well-maintained flower gardens.",
        "infoUrl": "https://www.weeadventurers.com/post/people-s-park",
        "category": "playparks",
        "county": "antrim"
      }
    },
    {
      "type": "Feature",
      "geometry": { "type": "Point", "coordinates": [-6.239497, 54.715753] },
      "properties": {
        "name": "Antrim Lough Shore Park Playpark",
        "description": "Situated on the banks of Lough Neagh. A beautiful spot for a walk, with a great playground and cafe.",
        "infoUrl": "https://www.weeadventurers.com/post/antrim-lough-shore-park",
        "category": "playparks",
        "county": "antrim"
      }
    },
    {
      "type": "Feature",
      "geometry": { "type": "Point", "coordinates": [-5.834328, 54.59512] },
      "properties": {
        "name": "Mo Mowlam Play Park",
        "description": "Located within the Stormont Estate. This is one of the best inclusive playgrounds in NI, catering to all abilities.",
        "infoUrl": "https://www.weeadventurers.com/post/mo-mowlam",
        "category": "playparks",
        "county": "north down"
      }
    },
    {
      "type": "Feature",
      "geometry": { "type": "Point", "coordinates": [-5.828179, 54.646343] },
      "properties": {
        "name": "Seapark Bay Park",
        "description": "Beach meets park! A large grassy area with a seaside playground and views across Belfast Lough.",
        "infoUrl": "https://www.weeadventurers.com/post/seapark-bay",
        "category": "playparks",
        "county": "north down"
      }
    },
    {
      "type": "Feature",
      "geometry": { "type": "Point", "coordinates": [-6.082384, 54.458616] },
      "properties": {
        "name": "Hillsborough Forest Park",
        "description": "Recently upgraded with a fantastic digital sculpture trail and a large, modern lakeside playground.",
        "infoUrl": "https://www.weeadventurers.com/post/hillsborough-forest-park",
        "category": "playparks",
        "county": "down"
      }
    },
    {
      "type": "Feature",
      "geometry": { "type": "Point", "coordinates": [-5.895945, 54.394929] },
      "properties": {
        "name": "Montalto Estate Play Park",
        "description": "A multi-award-winning adventure playground designed to look like a treehouse. A must-visit destination.",
        "infoUrl": "https://www.weeadventurers.com/post/montalto-estate",
        "category": "playparks",
        "county": "down"
      }
    },
    {
      "type": "Feature",
      "geometry": { "type": "Point", "coordinates": [-5.69619, 54.530286] },
      "properties": {
        "name": "WWT Castle Espie Nature Play",
        "description": "Feed the ducks and explore the wetlands. Great nature-based play areas and bird watching for kids.",
        "infoUrl": "https://www.weeadventurers.com/post/castle-espie",
        "category": "playparks",
        "county": "down"
      }
    },
    {
      "type": "Feature",
      "geometry": { "type": "Point", "coordinates": [-6.186412, 54.098559] },
      "properties": {
        "name": "Kilbroney Park",
        "description": "Home to the Narnia Trail! A beautiful park in Rostrevor with mountain views and a great playground.",
        "infoUrl": "https://www.weeadventurers.com/post/kilbroney-park",
        "category": "playparks",
        "county": "down"
      }
    },
    {
      "type": "Feature",
      "geometry": { "type": "Point", "coordinates": [-5.676644, 54.382006] },
      "properties": {
        "name": "Delamont Country Park",
        "description": "Features the longest miniature railway in Ireland and a massive adventure playground with views of the lough.",
        "infoUrl": "https://www.weeadventurers.com/post/delamont-country-park",
        "category": "playparks",
        "county": "down"
      }
    },
    {
      "type": "Feature",
      "geometry": { "type": "Point", "coordinates": [-5.959601, 54.267995] },
      "properties": {
        "name": "Castlewellan Forest Park",
        "description": "Home to the Peace Maze and a brilliant play area. Perfect for family walks around the lake.",
        "infoUrl": "https://www.weeadventurers.com/post/castlewellan-forest-park",
        "category": "playparks",
        "county": "down"
      }
    },
    {
      "type": "Feature",
      "geometry": { "type": "Point", "coordinates": [-5.940279, 54.224536] },
      "properties": {
        "name": "Tollymore Forest Park",
        "description": "Famous for its stepping stones and forest trails. A great place for families to explore the 'real' Narnia.",
        "infoUrl": "https://www.weeadventurers.com/post/tollymore-forest-park",
        "category": "playparks",
        "county": "down"
      }
    },
    {
      "type": "Feature",
      "geometry": { "type": "Point", "coordinates": [-7.72834, 54.477447] },
      "properties": {
        "name": "Castle Archdale Park",
        "description": "Lakeside trails, WWII history, and a great playground. A Fermanagh favourite for sunny days.",
        "infoUrl": "https://www.weeadventurers.com/post/castle-archdale",
        "category": "playparks",
        "county": "fermanagh"
      }
    },
    {
      "type": "Feature",
      "geometry": { "type": "Point", "coordinates": [-7.647984, 54.349254] },
      "properties": {
        "name": "Round 'O' Park",
        "description": "Enniskillen's main riverside park. Duck feeding, boat trips, and a well-equipped playground.",
        "infoUrl": "https://www.weeadventurers.com/post/round-o-jetty",
        "category": "playparks",
        "county": "fermanagh"
      }
    },
    {
      "type": "Feature",
      "geometry": { "type": "Point", "coordinates": [-6.603196, 54.40831] },
      "properties": {
        "name": "Loughgall Country Park",
        "description": "Set in a rural estate with a large lake, forest walks, and a quiet, safe play area.",
        "infoUrl": "https://www.weeadventurers.com/post/loughgall-country-park",
        "category": "playparks",
        "county": "armagh"
      }
    },
    {
      "type": "Feature",
      "geometry": { "type": "Point", "coordinates": [-6.572518, 54.512877] },
      "properties": {
        "name": "Maghery Country Park",
        "description": "Located on the shores of Lough Neagh. Woodland walks and a pleasant playground in a quiet setting.",
        "infoUrl": "https://www.weeadventurers.com/post/maghery-country-park",
        "category": "playparks",
        "county": "armagh"
      }
    },
    {
      "type": "Feature",
      "geometry": { "type": "Point", "coordinates": [-6.513612, 54.307076] },
      "properties": {
        "name": "Gosford Forest Park",
        "description": "Incredible 'All Out Play' adventure playground with giant castles and zip lines. Great for older kids too.",
        "infoUrl": "https://www.weeadventurers.com/post/gosford-forest-park",
        "category": "playparks",
        "county": "armagh"
      }
    },
    {
      "type": "Feature",
      "geometry": { "type": "Point", "coordinates": [-6.615007, 54.483852] },
      "properties": {
        "name": "Peatlands Park",
        "description": "Unique bogland park with a narrow-gauge railway and miles of walking trails through the woods.",
        "infoUrl": "https://www.weeadventurers.com/post/peatlands-park",
        "category": "playparks",
        "county": "armagh"
      }
    },
    {
      "type": "Feature",
      "geometry": { "type": "Point", "coordinates": [-6.361535, 54.329764] },
      "properties": {
        "name": "Scarva Park",
        "description": "A lovely village park beside the canal. Famous for its tea rooms and the beautiful towpath walk.",
        "infoUrl": "https://www.weeadventurers.com/post/scarva-park",
        "category": "playparks",
        "county": "armagh"
      }
    },
    {
      "type": "Feature",
      "geometry": { "type": "Point", "coordinates": [-6.429735, 54.427222] },
      "properties": {
        "name": "Edenvilla Park",
        "description": "Home to the Secret Garden and a fantastic bird sanctuary. A quiet, peaceful park with a good playground.",
        "infoUrl": "https://www.weeadventurers.com/post/edenvilla-park",
        "category": "playparks",
        "county": "armagh"
      }
    },
    {
      "type": "Feature",
      "geometry": { "type": "Point", "coordinates": [-6.385044, 54.495653] },
      "properties": {
        "name": "Oxford Island",
        "description": "Nature reserve on Lough Neagh. Great for bird watching, woodland walks, and a lakeside picnic.",
        "infoUrl": "https://www.weeadventurers.com/post/oxford-island",
        "category": "playparks",
        "county": "armagh"
      }
    },
    {
      "type": "Feature",
      "geometry": { "type": "Point", "coordinates": [-6.408904, 54.116026] },
      "properties": {
        "name": "Slieve Gullion Forest Park",
        "description": "Includes the 'Giant's Lair' adventure walk—a magical trail through the forest for little imaginations.",
        "infoUrl": "https://www.weeadventurers.com/post/slieve-gullion-forest-park",
        "category": "playparks",
        "county": "armagh"
      }
    },
    {
      "type": "Feature",
      "geometry": { "type": "Point", "coordinates": [-6.326216, 54.464395] },
      "properties": {
        "name": "Lurgan Park",
        "description": "The second largest park in Ireland! Features a huge lake, miles of paths, and a great playground.",
        "infoUrl": "https://www.weeadventurers.com/post/lurgan-park",
        "category": "playparks",
        "county": "armagh"
      }
    },
    {
      "type": "Feature",
      "geometry": { "type": "Point", "coordinates": [-6.381184, 54.464589] },
      "properties": {
        "name": "Tannaghmore Gardens",
        "description": "Farm animals, rare breeds, and a massive playground. A brilliant free day out for the whole family.",
        "infoUrl": "https://www.weeadventurers.com/post/tannaghmore-gardens",
        "category": "playparks",
        "county": "armagh"
      }
    },
    {
      "type": "Feature",
      "geometry": { "type": "Point", "coordinates": [-7.303591, 55.037466] },
      "properties": {
        "name": "Ballyarnett Country Park",
        "description": "A spacious park in Derry with a focus on biodiversity and outdoor family fun.",
        "infoUrl": "https://www.weeadventurers.com/post/ballyarnett-country-park",
        "category": "playparks",
        "county": "derry"
      }
    },
    {
      "type": "Feature",
      "geometry": { "type": "Point", "coordinates": [-6.953394, 55.043498] },
      "properties": {
        "name": "Limavady Play Park",
        "description": "A high-quality, accessible playground in the heart of Limavady designed for all children.",
        "infoUrl": "https://www.weeadventurers.com/post/limavady-accessible-play-park",
        "category": "playparks",
        "county": "derry"
      }
    },
    {
      "type": "Feature",
      "geometry": { "type": "Point", "coordinates": [-6.708328, 55.170083] },
      "properties": {
        "name": "Diversity Park",
        "description": "Located at Flowerfield Arts Centre. A fully inclusive play area with equipment for children of all abilities.",
        "infoUrl": "https://www.weeadventurers.com/post/diversity-park",
        "category": "playparks",
        "county": "derry"
      }
    },
    {
      "type": "Feature",
      "geometry": { "type": "Point", "coordinates": [-7.152324, 54.907583] },
      "properties": {
        "name": "Claudy Country Park",
        "description": "Lovely riverside walks and forest trails in a quiet setting. Perfect for a family dander.",
        "infoUrl": "https://www.weeadventurers.com/post/claudy-country-park",
        "category": "playparks",
        "county": "derry"
      }
    },
    {
      "type": "Feature",
      "geometry": { "type": "Point", "coordinates": [-7.186962, 54.946376] },
      "properties": {
        "name": "Ness Country Park",
        "description": "Home to the highest waterfall in NI! A stunning wooded park with dramatic walks and bridges.",
        "infoUrl": "https://www.weeadventurers.com/post/ness-country-park",
        "category": "playparks",
        "county": "derry"
      }
    },
    {
      "type": "Feature",
      "geometry": { "type": "Point", "coordinates": [-6.528113, 54.709672] },
      "properties": {
        "name": "Ballyronan Marina",
        "description": "A beautiful lough-side setting with a newly refurbished playground and forest 'wood-spirit' walk.",
        "infoUrl": "https://www.weeadventurers.com/post/ballyronan-marina",
        "category": "playparks",
        "county": "derry"
      }
    },
    {
      "type": "Feature",
      "geometry": { "type": "Point", "coordinates": [-6.707517, 54.75791] },
      "properties": {
        "name": "Iniscarn Forest",
        "description": "A hidden gem for forest walks and exploring the foothills of the Sperrins.",
        "infoUrl": "https://www.weeadventurers.com/post/iniscarn-forest-park",
        "category": "playparks",
        "county": "derry"
      }
    },
    {
      "type": "Feature",
      "geometry": { "type": "Point", "coordinates": [-6.549806, 54.952266] },
      "properties": {
        "name": "The Lake Kilrea WaterPark",
        "description": "Ireland's giant inflatable water park! Features massive slides, obstacles, and a 'total wipeout' style experience on the lake.",
        "infoUrl": "https://www.weeadventurers.com/post/the-lake-kilrea",
        "category": "sports",
        "county": "derry"
      }
    },
    {
      "type": "Feature",
      "geometry": { "type": "Point", "coordinates": [-6.66994, 54.724972] },
      "properties": {
        "name": "Jungle NI",
        "description": "One of the best adventure centres in NI. Offering paintball, zorbing, tree-top high ropes, and seasonal events like the Fright Night.",
        "infoUrl": "https://www.weeadventurers.com/post/the-jungle",
        "category": "sports",
        "county": "derry"
      }
    },
    {
      "type": "Feature",
      "geometry": { "type": "Point", "coordinates": [-6.39185, 54.44587] },
      "properties": {
        "name": "Airtastic Craigavon Sports",
        "description": "A huge indoor entertainment hub. Features a trampoline park, ninja course, laser tag, and bowling all under one roof.",
        "infoUrl": "https://www.weeadventurers.com/post/airtastic-craigavon",
        "category": "sports",
        "county": "armagh"
      }
    },
    {
      "type": "Feature",
      "geometry": { "type": "Point", "coordinates": [-5.952034, 54.26062] },
      "properties": {
        "name": "Life Adventure Centre",
        "description": "Based in Castlewellan, offering mountain bike hire, kayaking, and canoeing on the lake. Great for active families.",
        "infoUrl": "https://www.weeadventurers.com/post/life-adventure-centre",
        "category": "sports",
        "county": "down"
      }
    },
    {
      "type": "Feature",
      "geometry": { "type": "Point", "coordinates": [-5.894679, 54.524062] },
      "properties": {
        "name": "Let's Go Hydro",
        "description": "A premier water sports park with a huge inflatable aqua park, cable wakeboarding, and luxury glamping pods.",
        "infoUrl": "https://www.weeadventurers.com/post/let-s-go-hydro",
        "category": "sports",
        "county": "north down"
      }
    },
    {
      "type": "Feature",
      "geometry": { "type": "Point", "coordinates": [-6.238099, 54.721465] },
      "properties": {
        "name": "Castlewood Tree Top Adventure",
        "description": "Climb, swing, and zip through the trees at Antrim Lough Shore. A brilliant challenge for brave little adventurers.",
        "infoUrl": "https://www.weeadventurers.com/post/castlewood-tree-top-adventure",
        "category": "sports",
        "county": "antrim"
      }
    },
    {
      "type": "Feature",
      "geometry": { "type": "Point", "coordinates": [-5.987327, 54.573383] },
      "properties": {
        "name": "Andersonstown Water Park",
        "description": "Home to the 'Surf Belfast' indoor wave rider and a fantastic water park with three high-speed water slides.",
        "infoUrl": "https://www.weeadventurers.com/post/andersonstown-leisure-centre",
        "category": "sports",
        "county": "belfast"
      }
    },
    {
      "type": "Feature",
      "geometry": { "type": "Point", "coordinates": [-6.040934, 54.500232] },
      "properties": {
        "name": "High Rise Lisburn Sports",
        "description": "A vertical adventure centre featuring Clip 'n Climb walls, a massive soft play, and sensory rooms.",
        "infoUrl": "https://www.weeadventurers.com/post/high-rise",
        "category": "sports",
        "county": "antrim"
      }
    },
    {
      "type": "Feature",
      "geometry": { "type": "Point", "coordinates": [-6.766564, 54.626507] },
      "properties": {
        "name": "Inflatable World Sports",
        "description": "Indoor bouncy heaven! A huge warehouse filled with every type of inflatable slide and obstacle you can imagine.",
        "infoUrl": "https://www.weeadventurers.com/post/inflatable-world",
        "category": "sports",
        "county": "tyrone"
      }
    },
    {
      "type": "Feature",
      "geometry": { "type": "Point", "coordinates": [-6.81026, 54.575337] },
      "properties": {
        "name": "DJ's Golf Driving Range",
        "description": "A family-friendly driving range in Cookstown. Great for a bit of competitive fun or introducing the kids to golf.",
        "infoUrl": "https://www.weeadventurers.com/post/dj-s-golf-driving-range",
        "category": "sports",
        "county": "tyrone"
      }
    },
    {
      "type": "Feature",
      "geometry": { "type": "Point", "coordinates": [-7.071139, 54.488133] },
      "properties": {
        "name": "Todds Leap Activity Centre",
        "description": "Extreme adventure! Off-road trucking, the giant swing, zip lines, and clay pigeon shooting for older kids and adults.",
        "infoUrl": "https://www.weeadventurers.com/post/todd-s-leap",
        "category": "sports",
        "county": "tyrone"
      }
    }
  ]
}
